{
  "type": "FeatureCollection",
  "features": [
    {
      "type": "Feature",
      "geometry": {
        "type": "Point",
        "coordinates": [
          112.9389,
          28.2278
        ]
      },
      "properties": {
        "location": "Changsha, China",
        "ID": "CS_CN",
        "photo_counts": 2
      }
    },
    {
      "type": "Feature",
      "geometry": {
        "type": "Point",
        "coordinates": [
          -71.0565,
          42.3555
        ]
      },
      "properties": {
        "location": "Boston, USA",
        "ID": "BOS_USA",
        "photo_counts": 9
      }
    },
    {
      "type": "Feature",
      "geometry": {
        "type": "Point",
        "coordinates": [
          -71.2926,
          42.2965
        ]
      },
      "properties": {
        "location": "Wellesley, USA",
        "ID": "W_USA",
        "photo_counts": 4
      }
    },
    {
      "type": "Feature",
      "geometry": {
        "type": "Point",
        "coordinates": [
          116.4074,
          39.9042
        ]
      },
      "properties": {
        "location": "Beijing, China",
        "ID": "BJ_CN",
        "photo_counts": 4
      }
    },
    {
      "type": "Feature",
      "geometry": {
        "type": "Point",
        "coordinates": [
          -70.623,
          42.6548
        ]
      },
      "properties": {
        "location": "Rockport, USA",
        "ID": "RP_USA",
        "photo_counts": 9
      }
    },
    {
      "type": "Feature",
      "geometry": {
        "type": "Point",
        "coordinates": [
          114.1694,
          22.3193
        ]
      },
      "properties": {
        "location": "Hong Kong",
        "ID": "HK",
        "photo_counts": 2
      }
    },
    {
      "type": "Feature",
      "geometry": {
        "type": "Point",
        "coordinates": [
          -3.5334,
          51.4048
        ]
      },
      "properties": {
        "location": "St. Donats, Wales",
        "ID": "StD_W",
        "photo_counts": 4
      }
    },
    {
      "type": "Feature",
      "geometry": {
        "type": "Point",
        "coordinates": [
          117.9711,
          37.3831
        ]
      },
      "properties": {
        "location": "Shandong, China",
        "ID": "SD_CN",
        "photo_counts": 2
      }
    },
    {
      "type": "Feature",
      "geometry": {
        "type": "Point",
        "coordinates": [
          0.3763,
          39.4699
        ]
      },
      "properties": {
        "location": "Valencia, Spain",
        "ID": "VL_SP",
        "photo_counts": 15
      }
    },
    {
      "type": "Feature",
      "geometry": {
        "type": "Point",
        "coordinates": [
          139.7454,
          35.6941
        ]
      },
      "properties": {
        "location": "Tokyo, Japan",
        "ID": "TK_JP",
        "photo_counts": 6
      }
    },
    {
      "type": "Feature",
      "geometry": {
        "type": "Point",
        "coordinates": [
          121.473,
          31.2479
        ]
      },
      "properties": {
        "location": "Shanghai, China",
        "ID": "SH_CN",
        "photo_counts": 6
      }
    },
    {
      "type": "Feature",
      "geometry": {
        "type": "Point",
        "coordinates": [
          138.5969,
          36.3486
        ]
      },
      "properties": {
        "location": "Karuizawa, Japan",
        "ID": "K_JP",
        "photo_counts": 3
      }
    },
    {
      "type": "Feature",
      "geometry": {
        "type": "Point",
        "coordinates": [
          -74.006,
          40.7128
        ]
      },
      "properties": {
        "location": "New York, USA",
        "ID": "NYC_USA",
        "photo_counts": 6
      }
    },
    {
      "type": "Feature",
      "geometry": {
        "type": "Point",
        "coordinates": [
          120.165,
          30.2526
        ]
      },
      "properties": {
        "location": "Hangzhou, China",
        "ID": "HZ_CN",
        "photo_counts": 1
      }
    },
    {
      "type": "Feature",
      "geometry": {
        "type": "Point",
        "coordinates": [
          13.4105,
          52.5244
        ]
      },
      "properties": {
        "location": "Berlin, Germany",
        "ID": "BER_DE",
        "photo_counts": 6
      }
    },
    {
      "type": "Feature",
      "geometry": {
        "type": "Point",
        "coordinates": [
          113.2618,
          23.1297
        ]
      },
      "properties": {
        "location": "Guangzhou, China",
        "ID": "GZ_CN",
        "photo_counts": 1
      }
    },
    {
      "type": "Feature",
      "geometry": {
        "type": "Point",
        "coordinates": [
          119.9081,
          32.4907
        ]
      },
      "properties": {
        "location": "Taizhou, China",
        "ID": "TZ_CN",
        "photo_counts": 1
      }
    },
    {
      "type": "Feature",
      "geometry": {
        "type": "Point",
        "coordinates": [
          0.1278,
          51.5074
        ]
      },
      "properties": {
        "location": "London, England",
        "ID": "LDN_ENG",
        "photo_counts": 5
      }
    },
    {
      "type": "Feature",
      "geometry": {
        "type": "Point",
        "coordinates": [
          100.21229,
          25.58474
        ]
      },
      "properties": {
        "location": "Dali, China",
        "ID": "DL_CN",
        "photo_counts": 4
      }
    },
    {
      "type": "Feature",
      "geometry": {
        "type": "Point",
        "coordinates": [
          31.17,
          3.01
        ]
      },
      "properties": {
        "location": "Arua, Uganda",
        "ID": "ARUA_UG",
        "photo_counts": 5
      }
    },
    {
      "type": "Feature",
      "geometry": {
        "type": "Point",
        "coordinates": [
          2.3522,
          48.8566
        ]
      },
      "properties": {
        "location": "Paris, France",
        "ID": "PR_FR",
        "photo_counts": 4
      }
    },
    {
      "type": "Feature",
      "geometry": {
        "type": "Point",
        "coordinates": [
          2.173,
          41.385
        ]
      },
      "properties": {
        "location": "Barcelona, Spain",
        "ID": "BCN_SP",
        "photo_counts": 3
      }
    },
    {
      "type": "Feature",
      "geometry": {
        "type": "Point",
        "coordinates": [
          -73.16734,
          44.0153371
        ]
      },
      "properties": {
        "location": "Middlebury, USA",
        "ID": "MIDD_USA",
        "photo_counts": 2
      }
    },
    {
      "type": "Feature",
      "geometry": {
        "type": "Point",
        "coordinates": [
          -72.9299,
          41.310726
        ]
      },
      "properties": {
        "location": "New Haven, USA",
        "ID": "NH_USA",
        "photo_counts": 7
      }
    }
  ]
}